City_ID,City,Cloudiness,Country,Date,Humidity,Lat,Lng,Max Temp,Wind Speed
0,charters towers,0,AU,1536526067,85,-20.07,146.27,58.51,7.18
1,kimbe,12,PG,1536526067,100,-5.56,150.15,77.14,6.96
2,sao filipe,92,CV,1536526067,100,14.9,-24.5,76.69,33.35
3,new norfolk,75,AU,1536525000,57,-42.78,147.06,51.8,11.41
4,kalabo,0,ZM,1536526068,26,-15.0,22.67,67.06,10.42
5,atuona,68,PF,1536525769,100,-9.8,-139.03,78.04,16.02
6,chokurdakh,56,RU,1536526068,94,70.62,147.9,43.03,11.32
7,albany,90,US,1536522840,57,42.65,-73.75,62.06,5.82
8,saint-philippe,1,CA,1536524100,44,45.36,-73.48,63.32,8.05
9,ayagoz,0,KZ,1536526069,88,47.96,80.43,39.61,3.71
10,thompson,90,CA,1536523200,93,55.74,-97.86,57.2,6.93
11,tasiilaq,92,GL,1536522600,87,65.61,-37.64,42.8,11.41
12,ilulissat,92,GL,1536522600,80,69.22,-51.1,39.2,3.36
13,sovetskaya gavan,0,RU,1536526069,100,48.97,140.29,46.0,10.98
14,hilo,1,US,1536522960,72,19.71,-155.08,82.94,10.29
15,east london,92,ZA,1536526070,100,-33.02,27.91,58.87,18.03
16,bluff,0,AU,1536526070,42,-23.58,149.07,52.03,8.52
17,sorong,68,ID,1536526070,100,-0.86,131.25,78.58,12.66
18,moche,20,PE,1536523200,72,-8.17,-79.01,68.0,11.41
19,mitsamiouli,20,KM,1536523200,73,-11.38,43.28,77.0,11.41
20,ushuaia,40,AR,1536523200,65,-54.81,-68.31,46.4,12.75
21,ancud,0,CL,1536526071,62,-41.87,-73.83,56.62,2.59
22,halifax,75,CA,1536523200,45,44.65,-63.58,62.6,12.75
23,napierville,1,CA,1536524100,43,45.19,-73.4,63.32,5.82
24,shihezi,0,CN,1536525928,65,44.3,86.03,49.42,1.7
25,mataura,92,NZ,1536526071,96,-46.19,168.86,43.21,4.16
26,acapulco,75,MX,1536522240,70,16.86,-99.88,87.8,5.82
27,souillac,0,FR,1536525000,83,45.6,-0.6,69.8,3.36
28,botwood,40,CA,1536523200,76,49.14,-55.34,51.8,6.93
29,dikson,68,RU,1536526072,100,73.51,80.55,35.2,9.98
30,nara,75,JP,1536524340,100,34.68,135.8,73.4,8.05
31,tuktoyaktuk,90,CA,1536523200,86,69.44,-133.03,41.0,19.46
32,buin,88,CL,1536523200,17,-33.73,-70.74,75.2,8.05
33,deputatskiy,80,RU,1536526073,97,69.3,139.9,45.55,3.15
34,port alfred,76,ZA,1536526073,100,-33.59,26.89,56.26,9.64
35,khatanga,80,RU,1536526074,84,71.98,102.47,34.66,3.15
36,bredasdorp,12,ZA,1536523200,87,-34.53,20.04,42.8,3.36
37,conceicao do araguaia,92,BR,1536526074,31,-8.26,-49.26,91.54,3.94
38,kodiak,1,US,1536522780,55,39.95,-94.76,75.92,5.82
39,rongcheng,0,CN,1536526074,97,37.16,122.42,62.56,9.08
40,jamestown,0,AU,1536526075,74,-33.21,138.6,36.91,3.71
41,punta arenas,0,CL,1536523200,43,-53.16,-70.91,50.0,14.99
42,gryfice,0,PL,1536525000,71,53.91,15.2,57.2,2.24
43,colonia,75,RO,1536525000,67,46.6,23.97,62.6,2.24
44,boca do acre,44,BR,1536526076,34,-8.76,-67.39,95.05,2.15
45,nago,0,IT,1536524400,77,45.88,10.89,73.4,3.36
46,aparecida do taboado,0,BR,1536526076,38,-20.08,-51.1,84.79,1.36
47,hamilton,75,BM,1536522900,69,32.3,-64.78,82.4,9.17
48,hobart,75,AU,1536525000,57,-42.88,147.33,51.8,11.41
49,provideniya,0,RU,1536523200,66,64.42,-173.23,55.4,6.71
50,rikitea,56,PF,1536526077,100,-23.12,-134.97,72.28,13.22
51,kyrylivka,0,UA,1536526077,92,47.65,37.3,60.94,7.74
52,cockburn town,44,TC,1536526077,100,21.46,-71.14,82.99,12.21
53,vaini,76,IN,1536526077,98,15.34,74.49,67.15,1.36
54,pahrump,1,US,1536523080,2,36.21,-115.98,100.04,8.05
55,iracoubo,32,GF,1536526078,67,5.48,-53.21,83.71,5.39
56,pocone,0,BR,1536526078,29,-16.26,-56.62,95.68,5.06
57,fowa,100,NG,1536526078,99,8.92,6.4,71.29,5.39
58,andilamena,24,MG,1536526078,93,-17.01,48.57,55.36,6.96
59,castro,12,CL,1536526079,64,-42.48,-73.76,55.45,2.48
60,vega de alatorre,36,MX,1536526079,89,20.03,-96.65,81.1,1.59
61,dovers,40,VC,1536523200,62,12.88,-61.18,87.8,8.05
62,keetmanshoop,0,NA,1536526079,24,-26.57,18.15,44.29,9.19
63,carnarvon,0,ZA,1536526079,66,-30.97,22.13,25.66,3.6
64,longyearbyen,75,NO,1536522600,87,78.22,15.63,42.8,14.99
65,del rio,75,US,1536522960,74,29.36,-100.9,80.06,11.41
66,katsuura,75,JP,1536524820,94,33.93,134.5,71.6,3.36
67,kapaa,40,US,1536522960,84,22.08,-159.32,82.94,10.29
68,kosh-agach,80,RU,1536526080,97,49.99,88.66,30.7,3.27
69,mar del plata,0,AR,1536526080,35,-46.43,-67.52,59.68,8.41
70,kahului,75,US,1536525120,74,20.89,-156.47,84.92,4.7
71,fare,20,PF,1536526081,100,-16.7,-151.02,76.6,6.51
72,puerto ayora,20,EC,1536523200,57,-0.74,-90.35,80.6,19.46
73,bonthe,56,SL,1536526081,94,7.53,-12.5,76.42,3.94
74,sitka,0,US,1536526081,89,37.17,-99.65,75.34,6.17
75,busselton,64,AU,1536526081,98,-33.64,115.35,61.21,19.6
76,gwadar,76,PK,1536526082,100,25.12,62.33,77.14,3.38
77,talnakh,80,RU,1536526082,100,69.49,88.39,34.66,3.71
78,erdaojiang,0,CN,1536526082,78,41.78,126.03,37.72,2.15
79,oloron-sainte-marie,75,FR,1536525000,88,43.19,-0.61,68.0,6.93
80,flin flon,90,CA,1536523200,93,54.77,-101.88,60.8,4.7
81,barrow,92,AR,1536525833,34,-38.31,-60.23,57.88,10.42
82,newry,40,GB,1536524400,81,54.18,-6.34,55.4,12.75
83,orlovka,64,KG,1536526083,91,42.75,75.59,40.06,2.37
84,tilichiki,92,RU,1536526083,100,60.47,166.1,52.21,3.83
85,cape town,0,ZA,1536523200,81,-33.93,18.42,53.6,5.82
86,bambous virieux,20,MU,1536523200,68,-20.34,57.76,69.8,12.75
87,hithadhoo,100,MV,1536526084,100,-0.6,73.08,83.17,10.54
88,butaritari,88,KI,1536526076,100,3.07,172.79,79.66,9.19
89,port hardy,75,CA,1536523200,87,50.7,-127.42,59.0,6.93
90,torbay,75,CA,1536523200,71,47.66,-52.73,53.6,8.05
91,ahuimanu,1,US,1536523020,74,21.44,-157.84,84.92,5.82
92,horta,0,ES,1536525000,78,41.43,2.16,77.0,3.36
93,saint george,20,GR,1536522600,64,39.45,22.34,68.0,3.36
94,komsomolskiy,56,RU,1536526085,82,67.55,63.78,29.71,2.71
95,iqaluit,75,CA,1536523200,70,63.75,-68.52,44.6,19.46
96,sibolga,80,ID,1536526085,100,1.74,98.78,67.6,1.92
97,vila,0,IT,1536524400,82,45.18,8.4,69.8,3.36
98,saskylakh,76,RU,1536526086,86,71.97,114.09,31.87,3.83
99,kaitangata,76,NZ,1536526086,94,-46.28,169.85,42.4,5.84
100,mumford,12,GH,1536526086,95,5.26,-0.76,73.99,8.41
101,chuy,8,UY,1536526086,80,-33.69,-53.46,57.79,13.44
102,coos bay,1,US,1536524100,69,43.37,-124.22,64.04,11.41
103,ust-maya,88,RU,1536526087,89,60.42,134.54,33.76,5.84
104,nelson bay,0,AU,1536525000,76,-32.72,152.14,50.0,8.05
105,okoneshnikovo,32,RU,1536526087,85,54.84,75.08,54.28,13.44
106,rio de jesus,92,PA,1536526087,95,7.98,-81.16,77.86,2.82
107,mahebourg,20,MU,1536523200,68,-20.41,57.7,69.8,12.75
108,stromness,90,CA,1536523200,58,42.87,-79.55,59.0,28.86
109,port hedland,0,AU,1536525000,51,-20.31,118.58,60.8,5.82
110,hasaki,75,JP,1536523200,100,35.73,140.83,75.2,4.7
111,ahipara,92,NZ,1536526088,100,-35.17,173.16,51.49,7.4
112,thunder bay,75,CA,1536523200,63,48.41,-89.26,64.4,11.41
113,richards bay,32,ZA,1536526089,86,-28.77,32.06,56.8,13.56
114,ponta do sol,0,BR,1536526089,39,-20.63,-46.0,73.99,2.71
115,airai,0,TL,1536526089,81,-8.93,125.41,56.08,1.81
116,puke,0,AL,1536525000,44,42.04,19.9,77.0,5.82
117,mount gambier,92,AU,1536525969,92,-37.83,140.78,53.74,3.71
118,walvis bay,0,NA,1536526089,98,-22.95,14.51,58.6,4.16
119,banda aceh,92,ID,1536525792,98,5.56,95.32,74.35,2.93
120,olden,75,NO,1536524400,48,61.84,6.81,62.6,23.04
121,ariquemes,44,BR,1536526090,25,-9.91,-63.03,97.66,2.71
122,qaanaaq,0,GL,1536526090,100,77.48,-69.36,29.26,7.18
123,bellavista,92,CO,1536526091,90,6.57,-76.89,76.96,2.93
124,nanortalik,8,GL,1536526091,95,60.14,-45.24,42.13,8.19
125,los llanos de aridane,20,ES,1536525000,69,28.66,-17.92,73.4,16.11
126,geraldton,75,CA,1536523200,42,49.72,-86.95,64.4,18.34
127,luderitz,0,NA,1536526091,64,-26.65,15.16,56.62,5.73
128,macheng,76,CN,1536526092,82,31.18,115.03,60.76,2.93
129,presidente venceslau,0,BR,1536523200,24,-21.88,-51.85,93.2,2.48
130,bethel,1,US,1536522780,74,60.79,-161.76,51.98,8.05
131,inirida,24,CO,1536526093,76,3.87,-67.92,84.7,2.26
132,aykhal,44,RU,1536526093,100,65.95,111.51,26.56,2.71
133,avarua,20,CK,1536523200,74,-21.21,-159.78,80.6,4.7
134,vila velha,0,BR,1536523200,65,-3.71,-38.6,82.4,13.87
135,lorengau,92,PG,1536526093,100,-2.02,147.27,78.22,6.96
136,arraial do cabo,0,BR,1536523200,57,-22.97,-42.02,75.2,10.29
137,prescott,40,US,1536522780,17,34.54,-112.47,89.06,13.87
138,rocklin,1,US,1536525300,28,38.79,-121.24,87.8,4.7
139,port elizabeth,90,US,1536524880,92,39.31,-74.98,64.04,14.99
140,boden,75,SE,1536524400,93,65.83,21.69,57.2,1.12
141,ribeira grande,20,PT,1536523200,73,38.52,-28.7,77.0,2.24
142,caceres,44,CO,1536526095,67,5.53,-74.53,78.22,2.26
143,majene,36,ID,1536526095,98,-3.54,118.97,82.18,7.85
144,jamsa,75,FI,1536524400,87,61.86,25.19,59.0,4.7
145,guerrero negro,0,MX,1536526095,53,27.97,-114.04,87.85,9.42
146,sokoto,24,NG,1536526095,96,13.06,5.24,71.92,4.61
147,bushenyi,0,UG,1536526095,89,-0.54,30.19,60.22,2.59
148,aquiraz,0,BR,1536523200,65,-3.9,-38.39,82.4,13.87
149,christchurch,36,NZ,1536525000,86,-43.53,172.64,41.0,1.12
150,abu kamal,0,SY,1536526096,37,34.45,40.92,73.45,5.06
151,norman wells,75,CA,1536523200,70,65.28,-126.83,44.6,3.27
152,fortuna,40,ES,1536525000,73,38.18,-1.13,77.0,5.82
153,hualmay,24,PE,1536526096,69,-11.1,-77.61,68.32,6.06
154,hermanus,0,ZA,1536526097,94,-34.42,19.24,37.09,3.6
155,tuatapere,88,NZ,1536526097,100,-46.13,167.69,46.27,4.61
156,lebu,40,ET,1536523200,77,8.96,38.73,59.0,4.7
157,camopi,68,GF,1536526097,100,3.17,-52.33,74.35,2.59
158,kropotkin,44,RU,1536526097,88,45.43,40.58,64.72,7.96
159,bhavnagar,0,IN,1536526097,90,21.77,72.14,75.34,7.63
160,mackay,90,CA,1536523200,71,53.65,-115.58,50.0,10.29
161,ostersund,75,SE,1536524400,67,63.18,14.64,57.2,11.41
162,bartlett,75,US,1536524100,63,41.89,-98.55,72.5,11.41
163,saint-augustin,0,FR,1536525000,94,44.83,-0.61,68.0,3.36
164,verkhnetulomskiy,0,RU,1536523200,86,68.61,31.8,41.0,2.24
165,grants pass,1,US,1536522960,54,42.44,-123.33,75.02,2.48
166,codrington,0,AU,1536526099,83,-28.95,153.24,48.61,2.82
167,meiktila,68,MM,1536526013,96,20.88,95.86,71.38,4.94
168,oussouye,40,SN,1536523200,83,12.49,-16.54,82.4,4.7
169,lokachi,56,UA,1536525811,62,50.74,24.65,62.38,10.76
170,yellowknife,40,CA,1536523200,49,62.45,-114.38,46.4,4.7
171,itarema,0,BR,1536526100,46,-2.92,-39.92,85.78,9.86
172,kruisfontein,0,ZA,1536526100,100,-34.0,24.73,51.94,3.15
173,gisborne,0,NZ,1536526100,70,-38.66,178.02,48.88,7.74
174,tocopilla,0,CL,1536526100,90,-22.09,-70.2,63.46,5.61
175,lavrentiya,8,RU,1536525856,91,65.58,-170.99,51.04,2.26
176,barabinsk,12,RU,1536526100,94,55.35,78.35,51.49,12.44
177,barranca,12,PE,1536526101,99,-10.75,-77.76,61.84,8.97
178,saint-joseph,0,FR,1536525000,77,43.56,6.97,73.4,3.36
179,san juan,20,PR,1536522960,67,18.47,-66.12,86.0,12.75
180,cartagena,75,ES,1536525000,83,37.63,-1.0,77.0,3.36
181,port blair,48,IN,1536526102,100,11.67,92.75,80.38,5.84
182,tianpeng,80,CN,1536526103,89,28.88,112.34,66.25,2.15
183,palu,68,ID,1536526103,96,-0.9,119.87,66.07,1.59
184,alugan,8,PH,1536526103,100,12.22,125.48,78.04,4.5
185,hovd,0,NO,1536524400,63,63.83,10.7,62.6,21.92
186,lagoa,20,PT,1536525000,57,37.14,-8.45,75.2,8.05
187,alice springs,0,AU,1536525000,29,-23.7,133.88,39.2,4.7
188,mamallapuram,20,IN,1536525000,70,12.63,80.17,84.2,5.82
189,shimoda,75,JP,1536522720,94,34.7,138.93,73.4,3.36
190,kiama,20,AU,1536523200,81,-34.67,150.86,46.4,3.36
191,san andres,8,PH,1536526105,100,13.32,122.68,82.36,14.23
192,victoria,90,BN,1536525000,94,5.28,115.24,78.8,2.59
193,kenai,1,US,1536522960,53,60.55,-151.26,59.0,6.93
194,roebourne,0,AU,1536526105,81,-20.77,117.15,60.4,10.54
195,ostrovnoy,24,RU,1536526106,93,68.05,39.51,46.99,7.18
196,cidreira,80,BR,1536526106,78,-30.17,-50.22,63.01,15.01
197,broome,0,GB,1536524400,72,52.47,1.45,63.5,8.05
198,muromtsevo,92,RU,1536526106,96,56.37,75.24,54.37,14.45
199,limbe,80,MW,1536526106,85,-15.81,35.05,68.32,3.71
200,namibe,24,AO,1536526107,100,-15.19,12.15,64.0,4.16
201,macamic,20,CA,1536523200,67,48.75,-79.0,60.8,6.93
202,cayenne,0,GF,1536523200,55,4.94,-52.33,89.6,10.29
203,port augusta,0,AU,1536523200,81,-32.49,137.76,42.8,5.82
204,sfantu gheorghe,0,RO,1536525000,87,44.65,26.83,60.8,1.12
205,avera,40,US,1536525300,39,33.19,-82.53,96.98,6.93
206,umm lajj,0,SA,1536526108,100,25.02,37.27,79.21,6.06
207,constitucion,90,MX,1536522840,100,23.99,-104.67,64.4,9.17
208,nouadhibou,76,MR,1536523200,61,20.93,-17.03,77.0,16.11
209,bathsheba,20,BB,1536523200,70,13.22,-59.52,86.0,13.87
210,azangaro,40,PE,1536523200,18,-14.91,-70.2,60.8,8.05
211,laguna,75,MX,1536522060,43,27.52,-110.01,91.4,5.82
212,cherskiy,0,RU,1536525842,54,68.75,161.3,56.44,11.21
213,aklavik,90,CA,1536523200,65,68.22,-135.01,46.4,8.05
214,touros,0,BR,1536526109,70,-5.2,-35.46,78.85,16.46
215,byron bay,0,AU,1536525000,100,-28.65,153.62,55.4,3.36
216,kokoda,92,PG,1536526110,100,-8.88,147.74,62.29,2.15
217,dunedin,92,NZ,1536526110,98,-45.87,170.5,39.16,2.82
218,mount darwin,0,ZW,1536526110,70,-16.77,31.58,66.43,5.73
219,pimentel,8,BR,1536526111,58,-3.7,-45.5,84.52,4.94
220,wanaka,92,NZ,1536526111,98,-44.7,169.14,37.81,2.71
221,dwarka,40,IN,1536523200,94,28.58,77.04,80.6,4.94
222,leningradskiy,8,RU,1536526111,71,69.38,178.42,50.95,4.94
223,pisco,0,PE,1536523200,30,-13.71,-76.2,71.6,10.29
224,lasa,0,CY,1536525000,60,34.92,32.53,77.0,6.93
225,molteno,0,ZA,1536526112,73,-31.4,26.36,22.42,3.04
226,pangai,90,TO,1536523200,94,-19.8,-174.35,71.6,6.93
227,balkhash,20,KZ,1536526112,100,46.84,74.98,55.63,6.4
228,gafargaon,75,BD,1536525000,79,24.46,90.55,84.2,11.41
229,rumoi,92,JP,1536526112,81,43.93,141.67,56.71,3.6
230,empangeni,32,ZA,1536526113,86,-28.75,31.9,56.8,13.56
231,omboue,44,GA,1536526113,100,-1.57,9.26,76.15,10.42
232,kavieng,88,PG,1536526113,100,-2.57,150.8,78.76,7.85
233,gornopravdinsk,68,RU,1536526113,68,60.06,69.92,43.48,8.52
234,mildura,0,AU,1536526073,80,-34.18,142.16,42.58,1.59
235,melnikovo,12,RU,1536525814,99,56.55,84.09,48.34,6.62
236,upernavik,68,GL,1536526114,98,72.79,-56.15,39.61,2.59
237,kuytun,92,RU,1536526114,100,54.34,101.51,50.14,3.15
238,guozhen,88,CN,1536526114,72,29.3,113.14,64.99,5.39
239,vestmanna,48,FO,1536524400,100,62.16,-7.17,50.0,10.29
240,nome,40,US,1536524100,72,30.04,-94.42,89.96,10.29
241,honningsvag,75,NO,1536522600,93,70.98,25.97,46.4,5.82
242,kununurra,90,AU,1536525000,73,-15.77,128.74,75.2,4.7
243,cabedelo,20,BR,1536523200,69,-6.97,-34.84,78.8,14.99
244,oum hadjer,24,TD,1536526115,78,13.3,19.7,78.58,0.58
245,plettenberg bay,0,ZA,1536526116,100,-34.05,23.37,55.18,4.61
246,ust-nera,92,RU,1536526116,97,64.57,143.24,41.14,2.71
247,kloulklubed,40,PW,1536522600,94,7.04,134.26,75.2,12.44
248,orje,100,NO,1536524400,87,59.48,11.66,60.8,11.41
249,marienburg,0,DE,1536524400,67,52.12,9.98,62.6,1.12
250,xining,88,CN,1536526117,94,36.62,101.77,41.32,1.36
251,nybro,0,SE,1536524400,93,56.75,15.91,57.2,5.82
252,dawson,90,US,1536524100,54,39.85,-89.46,74.84,10.29
253,oranjemund,0,ZA,1536526117,87,-28.55,16.43,59.59,21.27
254,sable-sur-sarthe,0,FR,1536525000,72,47.84,-0.33,68.0,8.05
255,dukat,0,RS,1536526118,65,42.44,22.31,59.32,3.6
256,makat,0,KZ,1536526118,37,47.65,53.35,58.15,5.73
257,tiksi,92,RU,1536526118,100,71.64,128.87,35.38,15.01
258,san carlos,48,VE,1536526119,71,9.66,-68.59,84.52,4.94
259,muli,68,IN,1536526119,89,22.62,71.45,75.16,7.85
260,quatre cocos,20,MU,1536523200,68,-20.21,57.76,69.8,12.75
261,severo-kurilsk,88,RU,1536525852,100,50.68,156.12,50.41,4.5
262,college,1,US,1536523080,77,64.86,-147.8,44.06,2.82
263,mina,24,PH,1536526120,91,10.93,122.57,72.19,2.59
264,ghanzi,0,BW,1536526120,30,-21.7,21.65,45.01,8.97
265,sarangani,8,PH,1536526120,100,5.4,125.46,81.64,8.75
266,barabai,0,ID,1536526120,95,-2.59,115.38,71.56,0.36
267,slavuta,88,UA,1536526120,62,50.3,26.87,61.93,9.31
268,borshchiv,0,UA,1536523200,82,48.8,26.04,60.8,11.18
269,grindavik,40,IS,1536523200,93,63.84,-22.43,48.2,5.82
270,golfito,76,CR,1536526121,91,8.64,-83.17,81.91,4.72
271,luganville,68,VU,1536526121,100,-15.51,167.18,75.52,11.32
272,taoudenni,32,ML,1536526121,19,22.68,-3.98,95.32,7.18
273,kisangani,92,CD,1536526122,99,0.52,25.21,72.37,1.92
274,kovur,80,IN,1536526122,75,14.5,79.99,81.01,8.86
275,nikolskoye,0,RU,1536523200,93,59.7,30.79,53.6,6.06
276,krasnyy oktyabr,56,RU,1536526122,92,56.12,38.88,56.08,8.19
277,san quintin,36,PH,1536526122,90,17.54,120.52,71.29,2.71
278,tema,75,GH,1536523200,94,5.66,-0.01,77.0,10.29
279,ayan,0,TR,1536525834,86,40.67,33.6,43.66,2.15
280,muyezerskiy,0,RU,1536526123,94,63.93,31.65,41.77,2.93
281,shimanovsk,0,RU,1536526123,64,52.0,127.67,29.44,5.39
282,darnah,0,LY,1536526085,100,32.77,22.64,79.57,14.56
283,verkhnevilyuysk,0,RU,1536526123,100,63.45,120.31,29.89,6.62
284,kargil,24,PK,1536526123,97,34.56,76.13,30.34,1.48
285,yuanping,92,CN,1536526124,82,38.72,112.71,49.51,2.71
286,tingo maria,20,PE,1536523200,41,-9.29,-76.01,91.4,2.37
287,alofi,40,NU,1536523200,78,-19.06,-169.92,75.2,9.17
288,athabasca,76,CA,1536526124,82,54.72,-113.29,54.19,8.97
289,takoradi,68,GH,1536526124,100,4.89,-1.75,76.06,6.06
290,candelaria,40,CO,1536523200,45,3.41,-76.35,86.0,8.05
291,misratah,0,LY,1536526125,93,32.38,15.09,80.38,11.88
292,lyngseidet,0,NO,1536524400,87,69.58,20.21,48.2,23.04
293,vila franca do campo,20,PT,1536525000,88,37.72,-25.43,75.2,4.7
294,lethem,64,GY,1536526125,97,3.38,-59.8,76.42,4.94
295,olinda,20,EC,1536523200,55,-2.03,-79.75,86.0,4.7
296,bubaque,90,GW,1536523200,94,11.28,-15.83,75.2,11.41
297,nadbai,80,IN,1536526126,91,27.22,77.2,78.04,8.19
298,shingu,88,JP,1536526126,100,33.72,135.99,76.78,13.33
299,ketchikan,90,US,1536522960,86,55.34,-131.65,60.98,6.93
300,ola,90,RU,1536523200,93,59.58,151.3,51.8,2.24
301,hervey bay,0,AU,1536526126,100,-25.3,152.85,63.64,10.09
302,esterhazy,12,CA,1536526127,50,50.65,-102.08,71.83,17.69
303,shizukuishi,92,JP,1536526127,97,39.7,140.98,57.25,2.59
304,kaohsiung,75,TW,1536523200,88,22.62,120.31,78.8,5.82
305,bulungu,0,CD,1536526127,95,-4.54,18.6,70.12,2.93
306,ranong,76,TH,1536526127,100,9.96,98.62,80.29,9.86
307,flinders,20,AU,1536523200,81,-34.58,150.85,46.4,3.36
308,angoche,8,MZ,1536526128,100,-16.23,39.91,77.14,20.6
309,derzhavinsk,44,KZ,1536526128,66,51.1,66.31,53.11,7.52
310,faanui,36,PF,1536526128,100,-16.48,-151.75,77.41,7.18
311,roald,75,NO,1536524400,76,62.58,6.12,62.6,10.29
312,coahuayana,68,MX,1536526129,81,18.62,-100.35,75.16,2.93
313,wonthaggi,0,AU,1536526129,90,-38.6,145.59,51.13,4.72
314,itaituba,40,BR,1536523200,66,-4.26,-55.99,86.0,9.17
315,vardo,90,US,1536525180,96,39.62,-77.74,60.98,8.05
316,roura,0,GF,1536523200,55,4.73,-52.33,89.6,10.29
317,sindor,44,RU,1536526130,88,62.87,51.9,38.62,2.59
318,santona,40,ES,1536525000,94,43.44,-3.46,69.8,3.36
319,waipawa,0,NZ,1536526130,72,-39.94,176.59,43.12,4.94
320,mopti,68,ML,1536526130,92,14.49,-4.19,74.89,4.5
321,hay river,40,CA,1536523200,52,60.82,-115.79,46.4,5.82
322,narsaq,48,GL,1536522600,66,60.91,-46.05,48.2,6.93
323,sisimiut,92,GL,1536526131,95,66.94,-53.67,36.28,2.71
324,beira,0,ES,1536525000,93,43.2,-8.36,62.6,3.71
325,salisbury,0,GB,1536524400,87,51.07,-1.8,64.4,5.82
326,bilibino,0,RU,1536526131,59,68.06,166.44,56.98,6.4
327,lamar,1,US,1536522780,44,38.09,-102.62,84.02,9.17
328,rudnyy,40,KZ,1536523200,87,52.96,63.12,53.6,8.95
329,pachora,12,IN,1536526132,86,20.66,75.35,68.86,6.4
330,tazmalt,92,DZ,1536523200,78,36.39,4.4,78.8,6.93
331,baruun-urt,0,MN,1536526074,51,46.68,113.28,47.98,13.0
332,okhotsk,92,RU,1536526132,100,59.36,143.24,48.88,11.99
333,jacareacanga,44,BR,1536526133,74,-6.22,-57.76,84.16,2.93
334,pevek,36,RU,1536526133,74,69.7,170.27,52.66,12.21
335,irpa irpa,20,BO,1536523200,15,-17.72,-66.29,78.8,13.87
336,maraa,24,BR,1536526133,57,-1.83,-65.37,89.29,2.37
337,vestmannaeyjar,80,IS,1536526043,98,63.44,-20.27,48.52,7.63
338,isiro,32,CD,1536526133,98,2.77,27.62,68.32,2.15
339,san carlos de bariloche,0,AR,1536523200,26,-41.13,-71.31,60.8,13.87
340,esperance,40,TT,1536523200,66,10.24,-61.45,87.8,9.17
341,phalaborwa,0,ZA,1536523200,38,-23.95,31.14,59.0,5.82
342,berlevag,0,NO,1536522600,93,70.86,29.09,46.4,3.36
343,dickinson,90,US,1536522960,54,46.88,-102.79,71.06,8.05
344,galle,75,US,1536524880,78,29.74,-97.91,80.96,6.93
345,rawson,0,AR,1536526135,27,-43.3,-65.11,62.29,15.01
346,wanning,0,AT,1536524400,77,48.64,13.53,60.8,1.12
347,henties bay,0,NA,1536526135,92,-22.12,14.28,56.35,3.71
348,maputo,0,MZ,1536523200,51,-25.97,32.57,60.8,10.29
349,georgetown,75,GY,1536523200,94,6.8,-58.16,77.0,16.11
350,champerico,75,MX,1536522300,55,16.38,-93.6,87.8,2.93
351,beloha,92,MG,1536526136,93,-25.17,45.06,67.42,10.98
352,mucuri,68,BR,1536526137,83,-18.08,-39.55,72.28,9.75
353,mana,0,RS,1536525000,100,43.52,20.24,59.0,1.12
354,trinidad,0,UY,1536525853,42,-33.52,-56.9,67.96,14.79
355,praia,0,BR,1536523200,28,-20.25,-43.81,80.6,5.82
356,sao paulo de olivenca,36,BR,1536526138,81,-3.38,-68.87,81.91,1.14
357,te anau,92,NZ,1536526138,99,-45.41,167.72,39.79,2.93
358,basco,1,US,1536525300,49,40.33,-91.2,75.2,9.17
359,coquimbo,75,CL,1536523200,87,-29.95,-71.34,53.6,11.41
360,zyryanka,44,RU,1536526138,57,65.73,150.89,58.51,12.77
361,boende,68,CD,1536526138,98,-0.28,20.88,72.01,2.15
362,camacha,40,PT,1536525000,68,33.08,-16.33,71.6,12.75
363,elverum,92,NO,1536526139,98,60.88,11.56,53.65,7.4
364,doka,88,SD,1536526139,89,13.52,35.76,71.56,4.61
365,paungde,44,MM,1536526140,99,18.49,95.51,73.0,4.16
366,teguldet,56,RU,1536526140,97,57.31,88.17,52.39,4.16
367,launceston,0,AU,1536525000,87,-41.43,147.14,44.6,11.41
368,valley,32,GB,1536522600,72,53.28,-4.56,60.8,16.11
369,coihaique,0,CL,1536523200,44,-45.58,-72.07,57.2,6.93
370,tsumeb,0,NA,1536526141,32,-19.25,17.72,54.28,10.2
371,tomobe,75,JP,1536523200,100,36.35,140.3,75.2,6.93
372,egvekinot,20,RU,1536526141,85,66.32,-179.17,56.62,3.27
373,mayumba,12,GA,1536526141,99,-3.44,10.65,73.36,6.17
374,tuni,20,BO,1536523200,26,-16.67,-68.14,57.2,10.29
375,lompoc,1,US,1536525300,29,34.64,-120.46,89.6,10.29
376,babra,0,IN,1536526142,94,21.84,71.3,72.91,6.85
377,evensk,92,RU,1536526142,100,61.92,159.24,52.39,10.31
378,sorland,0,NO,1536522600,55,67.67,12.69,64.4,14.99
379,khandyga,92,RU,1536526142,100,62.65,135.58,35.38,7.07
380,yulara,0,AU,1536523200,25,-25.24,130.99,51.8,8.05
381,hofn,92,IS,1536526143,100,64.25,-15.21,48.52,4.72
382,kattivakkam,20,IN,1536525000,70,13.22,80.32,84.2,5.82
383,santa cruz de la palma,20,ES,1536525000,69,28.68,-17.76,73.4,16.11
384,rennes,0,FR,1536525000,77,48.11,-1.68,62.6,5.82
385,tezu,64,IN,1536526143,91,27.93,96.16,66.16,1.59
386,kulebaki,32,RU,1536526068,68,55.41,42.53,52.75,4.16
387,pangkalanbuun,24,ID,1536526144,94,-2.68,111.62,73.0,2.93
388,utete,88,TZ,1536526144,94,-7.99,38.76,73.54,3.6
389,port lincoln,0,AU,1536526144,100,-34.72,135.86,52.3,11.65
390,isangel,0,VU,1536526081,100,-19.55,169.27,71.29,4.27
391,kigoma,36,TZ,1536526145,96,-4.88,29.64,77.32,1.59
392,cheremshan,8,RU,1536526145,89,54.66,51.51,52.3,2.71
393,bara,0,NG,1536526145,97,10.41,10.6,69.49,6.96
394,daru,92,SL,1536526145,100,7.99,-10.85,72.1,4.94
395,bambanglipuro,92,ID,1536526146,100,-7.95,110.28,69.85,2.37
396,kyabe,88,TD,1536526146,97,9.45,18.94,70.3,6.29
397,lagunas,48,PE,1536526146,54,-5.23,-75.68,85.96,1.92
398,adrar,64,DZ,1536523200,9,27.87,-0.29,102.2,24.16
399,udachnyy,0,RU,1536526146,77,66.42,112.4,19.63,2.26
400,puerto del rosario,20,ES,1536525000,73,28.5,-13.86,73.4,16.11
401,qianguo,0,CN,1536526147,80,45.12,124.86,47.44,9.53
402,clyde river,90,CA,1536523200,60,70.47,-68.59,42.8,10.29
403,erzin,75,TR,1536524400,69,36.95,36.2,77.0,4.38
404,wladyslawowo,0,PL,1536525000,87,54.79,18.4,53.6,2.24
405,high rock,75,BS,1536523200,74,26.63,-78.28,86.0,4.7
406,westminster,56,GB,1536524400,68,51.5,-0.14,64.4,9.17
407,banjar,64,ID,1536526148,97,-7.37,108.54,68.59,2.59
408,lata,24,IN,1536526148,100,30.78,78.62,53.92,1.59
409,brigantine,90,US,1536524580,93,39.41,-74.36,64.04,19.46
410,nevyansk,0,RU,1536526149,96,57.49,60.21,35.92,2.48
411,durban,20,FR,1536525000,88,43.54,0.58,73.4,4.7
412,havoysund,0,NO,1536524400,87,71.0,24.66,48.2,5.82
413,ipixuna,40,BR,1536523200,74,-1.76,-48.8,80.6,3.36
414,baiyin,0,CN,1536523200,100,36.55,104.13,42.8,2.24
415,mae ramat,100,TH,1536526150,99,16.98,98.52,72.01,1.92
416,dongsheng,80,CN,1536526150,71,29.72,112.52,66.88,4.72
417,ciudad bolivar,8,VE,1536526150,65,8.12,-63.55,88.48,6.51
418,sinnamary,0,GF,1536526150,94,5.38,-52.96,82.81,9.19
419,lazaro cardenas,40,MX,1536522300,44,28.39,-105.62,78.8,9.17
420,palmer,0,AU,1536525000,93,-34.85,139.16,46.4,5.82
421,san pedro,24,AR,1536526152,44,-33.68,-59.66,70.3,16.02
422,pimenta bueno,48,BR,1536526153,29,-11.68,-61.19,94.42,2.15
423,logan,1,US,1536523080,20,41.73,-111.83,82.22,3.15
424,yar-sale,24,RU,1536526153,100,66.83,70.83,38.17,23.96
425,navalmoral de la mata,0,ES,1536526120,78,39.89,-5.54,63.28,2.82
426,pangnirtung,90,CA,1536523200,93,66.15,-65.72,39.2,5.82
427,kirovskiy,0,RU,1536526154,77,45.09,133.51,31.24,2.71
428,samana,40,EC,1536523200,62,0.12,-76.97,86.0,4.7
429,sao jose da coroa grande,92,BR,1536526154,99,-8.9,-35.15,73.45,6.96
430,kawalu,76,ID,1536526154,99,-7.38,108.21,64.0,1.36
431,omsukchan,76,RU,1536526154,85,62.53,155.8,46.18,10.2
432,novo aripuana,8,BR,1536526154,54,-5.12,-60.38,88.93,2.59
433,vostok,0,RU,1536526155,72,46.45,135.83,28.0,1.7
434,kuldur,0,RU,1536526155,73,49.22,131.63,26.65,2.59
435,opunake,92,NZ,1536526155,100,-39.45,173.86,50.95,3.94
436,shetpe,0,KZ,1536526155,32,44.14,52.16,67.78,11.65
437,fairbanks,1,US,1536523080,77,64.84,-147.72,44.06,2.82
438,faya,0,SA,1536523200,82,18.39,42.45,69.8,3.36
439,zaraza,24,VE,1536526156,92,9.35,-65.33,79.39,8.75
440,adelaide,0,AU,1536525000,93,-34.93,138.6,46.4,5.82
441,marzuq,0,YE,1536526139,42,14.4,46.47,65.8,1.92
442,naze,75,NG,1536523200,94,5.43,7.07,75.2,2.24
443,cabo san lucas,75,MX,1536522180,74,22.89,-109.91,86.0,6.93
444,ballina,75,IE,1536525000,76,54.11,-9.15,51.8,13.87
445,zyrardow,0,PL,1536525000,82,52.05,20.45,62.6,1.12
446,abalak,12,NE,1536526157,79,15.46,6.28,78.04,4.16
447,prigorodnyy,32,RU,1536526157,40,47.93,40.05,69.76,11.65
448,torres,100,BR,1536526157,91,-29.34,-49.73,61.21,4.94
449,whitehorse,40,CA,1536523200,57,60.72,-135.06,51.8,3.36
450,kalmunai,8,LK,1536526134,100,7.42,81.82,72.28,3.04
451,tazovskiy,92,RU,1536526158,100,67.47,78.7,35.83,19.37
452,fougamou,92,GA,1536526158,100,-1.22,10.59,70.12,2.71
453,cape canaveral,1,US,1536523320,73,28.41,-80.6,87.98,6.93
454,husavik,68,CA,1536526158,54,50.56,-96.99,80.02,20.27
455,caravelas,80,BR,1536526159,100,-17.73,-39.27,73.81,15.35
456,salawagan,20,PH,1536526159,100,7.71,125.11,65.44,2.15
457,pauini,32,BR,1536526159,50,-7.71,-67.0,92.17,3.71
458,aleysk,0,RU,1536526159,97,52.5,82.77,51.22,7.63
459,nishihara,40,JP,1536525000,88,35.74,139.53,78.8,5.82
460,camocim,20,BR,1536526159,57,-2.9,-40.84,85.33,3.49
461,ternate,75,PH,1536523200,100,14.29,120.72,80.6,1.12
462,hambantota,0,LK,1536526160,99,6.12,81.12,79.21,9.53
463,abha,0,SA,1536523200,82,18.22,42.5,69.8,3.36
464,fukuyama,92,JP,1536526160,96,34.52,133.33,65.08,7.74
465,tautira,20,PF,1536525000,54,-17.73,-149.15,82.4,3.36
466,necochea,92,AR,1536526123,43,-38.55,-58.74,55.99,12.66
467,kysyl-syr,36,RU,1536526161,75,63.9,122.77,35.56,9.75
468,saldanha,48,PT,1536526161,80,41.42,-6.55,61.66,3.94
469,klaksvik,8,FO,1536524400,100,62.23,-6.59,50.0,10.29
470,kieta,92,PG,1536526083,100,-6.22,155.63,78.22,4.16
471,westport,75,IE,1536525000,76,53.8,-9.52,51.8,13.87
472,desterro,0,BR,1536526161,54,-7.29,-37.09,78.4,10.65
473,ravar,0,IR,1536526162,18,31.27,56.81,58.51,3.71
474,tarabuco,0,BO,1536526162,34,-19.18,-64.92,63.28,3.94
475,zhezkazgan,12,KZ,1536526074,73,47.8,67.71,53.65,2.93
476,victor harbor,0,AU,1536525000,93,-35.55,138.62,46.4,5.82
477,matagami,76,NG,1536526162,98,9.67,8.4,68.14,3.6
478,islahiye,40,TR,1536522600,57,37.03,36.63,75.2,19.46
479,saint-georges,0,CA,1536526163,53,46.12,-70.67,57.34,3.27
480,high level,20,CA,1536523200,43,58.52,-117.13,50.0,6.93
481,zhigansk,92,RU,1536526163,88,66.77,123.37,38.35,12.66
482,kyshtym,68,RU,1536526163,85,55.71,60.55,47.08,6.17
483,battle creek,90,US,1536524160,56,42.32,-85.18,66.38,5.82
484,jasidih,64,IN,1536526103,91,24.51,86.65,78.04,6.06
485,laem sing,92,TH,1536526164,100,12.48,102.07,73.81,0.81
486,stutterheim,0,ZA,1536526164,94,-32.57,27.43,36.28,2.71
487,balkanabat,0,TM,1536526164,33,39.51,54.36,68.68,5.17
488,atar,88,MR,1536526164,17,20.52,-13.05,99.64,11.65
489,fort nelson,75,CA,1536523200,70,58.81,-122.69,46.4,3.36
490,arman,90,RU,1536523200,93,59.7,150.17,51.8,2.24
491,brainerd,1,US,1536524100,59,46.36,-94.2,71.06,13.87
492,new richmond,1,CA,1536523200,41,48.17,-65.87,60.8,9.17
493,dangtu,0,CN,1536523200,88,31.57,118.49,68.0,7.74
494,sur,0,OM,1536526163,92,22.57,59.53,82.09,4.16
495,maceio,40,BR,1536523200,73,-9.67,-35.74,77.0,13.87
496,pathein,76,MM,1536526166,96,16.78,94.73,73.9,3.15
497,antofagasta,20,CL,1536523200,67,-23.65,-70.4,59.0,11.41
498,kaka,0,TM,1536526166,70,37.35,59.62,58.69,2.04
499,lugovoy,0,RU,1536526167,82,59.72,65.88,41.68,9.19
500,nadadores,75,MX,1536522000,74,27.03,-101.59,78.8,3.71
501,lukaya,20,UG,1536523200,88,-0.15,31.87,69.8,5.82
502,panguna,20,PG,1536526167,91,-6.32,155.48,75.52,3.83
503,vanavara,8,RU,1536526167,86,60.35,102.28,35.74,2.48
504,hami,64,CN,1536526167,58,42.84,93.51,64.99,3.6
505,tamandare,12,BR,1536526168,33,-8.28,-70.75,96.49,3.71
506,baoding,64,CN,1536526168,68,38.86,115.49,60.94,4.16
507,kavaratti,88,IN,1536526168,100,10.57,72.64,81.91,8.63
508,shache,0,CN,1536526168,46,38.42,77.24,61.12,9.42
509,saint-jerome,75,CA,1536523200,48,45.78,-74.0,62.6,5.82
510,vanimo,92,PG,1536526073,100,-2.67,141.3,75.88,1.7
511,kuusamo,0,FI,1536524400,100,65.96,29.19,42.8,2.24
512,milkovo,20,BG,1536525000,44,41.53,24.68,75.2,12.75
513,chara,20,GR,1536522600,64,39.42,22.43,68.0,3.36
514,malibu,75,US,1536524100,67,33.61,-84.48,89.06,9.17
515,laramie,75,US,1536523080,3,41.31,-105.59,80.06,16.11
516,rocha,8,UY,1536526169,59,-34.48,-54.34,58.15,11.32
517,farad,24,YE,1536526170,71,14.05,44.12,58.24,1.7
518,padang,12,ID,1536526170,100,-0.92,100.36,81.37,2.82
519,vuktyl,48,RU,1536526170,86,63.86,57.31,36.46,2.59
520,gayeri,8,BF,1536526170,89,12.65,0.49,76.96,6.96
521,mitu,0,IR,1536526170,59,36.2,46.09,53.56,2.93
522,amarante do maranhao,76,BR,1536526171,70,-5.57,-46.74,78.58,2.59
523,demirci,0,TR,1536526171,83,39.05,28.66,52.3,2.26
524,palauig,56,PH,1536526171,100,15.44,119.9,73.36,2.93
